{
    "type": "FeatureCollection",
    "features": [{
            "geometry": {
                "type": "Point",
                "coordinates": [-83.0889065, 40.158432
                ]
            },
            "type": "Feature",
            "properties": {
                "category": "piggypaint",
                "hours": "10am - 6pm",
                "address": "4000 West Powell Rd. Powell OH 4306",
                "name": "Giant Eagle",
                "phone": "614-889-8073",
                "storeid": "0"
            }
        },
        {
            "geometry": {
                "type": "Point",
                "coordinates": [-73.989308, 40.741895
                ]
            },
            "type": "Feature",
            "properties": {
                "category": "piggypaint",
                "hours": "10am - 6pm",
                "address": "195 5th Ave, New York, NY 11217",
                "name": "Giant Eagle II",
                "phone": "614-294-2168",
                "storeid": "1"
            }
        },
         {
            "geometry": {
                "type": "Point",
                "coordinates": [-94.170420, 36.076070
                ]
            },
            "type": "Feature",
            "properties": {
                "category": "piggypaint",
                "hours": "10am - 6pm",
                "address": "900 North Leverett Avenue, Fayetteville AR 72701",
                "name": "Giant Eagle II",
                "phone": "614-294-2168",
                "storeid": "2"
            }
        },
        {
            "geometry": {
                "type": "Point",
                "coordinates": [-122.259590, 37.875389
                ]
            },
            "type": "Feature",
            "properties": {
                "category": "rockthelocks",
                "hours": "10am - 6pm",
                "address": "2511 Hearst Avenue, Berkeley CA 94709",
                "name": "Giant Eagle II",
                "phone": "614-294-2168",
                "storeid": "3"
            }
        },
        {
            "geometry": {
                "type": "Point",
                "coordinates": [-76.471640, 39.026140
                ]
            },
            "type": "Feature",
            "properties": {
                "category": "rockthelocks",
                "hours": "10am - 6pm",
                "address": "1433 Bretton View Road, Annapolis MD 21409",
                "name": "Giant Eagle II",
                "phone": "614-294-2168",
                "storeid": "4"
            }
        },
        {
            "geometry": {
                "type": "Point",
                "coordinates": [-85.600300, 38.189460
                ]
            },
            "type": "Feature",
            "properties": {
                "category": "rockthelocks",
                "hours": "10am - 6pm",
                "address": "3823 Shannon Run Trail, Louisville KY 40299",
                "name": "Giant Eagle II",
                "phone": "614-294-2168",
                "storeid": "5"
            }
        },
        {
            "geometry": {
                "type": "Point",
                "coordinates": [-72.4814159, 41.808431
                ]
            },
            "type": "Feature",
            "properties": {
                "category": "piggypaint",
                "hours": "10am - 6pm",
                "address": "23 Columbia Drive, Manchester CT 06042",
                "name": "Giant Eagle II",
                "phone": "614-294-2168",
                "storeid": "6"
            }
        },
        {
            "geometry": {
                "type": "Point",
                "coordinates": [-85.8826, 38.136864
                ]
            },
            "type": "Feature",
            "properties": {
                "category": "rockthelocks",
                "hours": "10am - 6pm",
                "address": "712 Stream View Trail, Louisville KY 40258",
                "name": "Giant Eagle II",
                "phone": "614-294-2168",
                "storeid": "7"
            }
        }
    ]
}
